{
    "cantidad": 52,
    "inicio": 0,
    "parametros": {},
    "provincias": [
      {
        "centroide": {
          "lat": 40.416775,
          "lon": -3.70379
        },
        "id": "01",
        "nombre": "Álava"
      },
      {
        "centroide": {
          "lat": 42.340872,
          "lon": -3.699731
        },
        "id": "02",
        "nombre": "Albacete"
      },
      {
        "centroide": {
          "lat": 38.345487,
          "lon": -0.481304
        },
        "id": "03",
        "nombre": "Alicante"
      },
      {
        "centroide": {
          "lat": 36.718377,
          "lon": -4.44942
        },
        "id": "04",
        "nombre": "Almería"
      },
      {
        "centroide": {
          "lat": 42.841782,
          "lon": -2.666237
        },
        "id": "33",
        "nombre": "Asturias"
      },
      {
        "centroide": {
          "lat": 37.877637,
          "lon": -4.780158
        },
        "id": "05",
        "nombre": "Ávila"
      },
      {
        "centroide": {
          "lat": 41.591158,
          "lon": 1.520862
        },
        "id": "06",
        "nombre": "Badajoz"
      },
      {
        "centroide": {
          "lat": 39.47465,
          "lon": -6.372596
        },
        "id": "07",
        "nombre": "Baleares"
      },
      {
        "centroide": {
          "lat": 41.38879,
          "lon": 2.15899
        },
        "id": "08",
        "nombre": "Barcelona"
      },
      {
        "centroide": {
          "lat": 40.962878,
          "lon": -5.663885
        },
        "id": "09",
        "nombre": "Burgos"
      },
      {
        "centroide": {
          "lat": 39.309978,
          "lon": -3.064532
        },
        "id": "10",
        "nombre": "Cáceres"
      },
      {
        "centroide": {
          "lat": 37.231752,
          "lon": -3.950374
        },
        "id": "11",
        "nombre": "Cádiz"
      },
      {
        "centroide": {
          "lat": 37.984128,
          "lon": -1.128072
        },
        "id": "39",
        "nombre": "Cantabria"
      },
      {
        "centroide": {
          "lat": 39.337443,
          "lon": -3.037961
        },
        "id": "12",
        "nombre": "Castellón"
      },
      {
        "centroide": {
          "lat": 38.96929,
          "lon": -0.515214
        },
        "id": "13",
        "nombre": "Ciudad Real"
      },
      {
        "centroide": {
          "lat": 41.385064,
          "lon": 2.173403
        },
        "id": "14",
        "nombre": "Barcelona"
      },
      {
        "centroide": {
          "lat": 39.484154,
          "lon": -0.801519
        },
        "id": "15",
        "nombre": "Cuenca"
      },
      {
        "centroide": {
          "lat": 42.598726,
          "lon": -5.567095
        },
        "id": "16",
        "nombre": "Gerona"
      },
      {
        "centroide": {
          "lat": 37.544792,
          "lon": -4.727734
        },
        "id": "17",
        "nombre": "Granada"
      },
      {
        "centroide": {
          "lat": 37.888175,
          "lon": -4.779383
        },
        "id": "18",
        "nombre": "Guadalajara"
      },
      {
        "centroide": {
          "lat": 37.177336,
          "lon": -3.598557
        },
        "id": "19",
        "nombre": "Huelva"
      },
      {
        "centroide": {
          "lat": 37.775044,
          "lon": -3.779155
        },
        "id": "20",
        "nombre": "Huesca"
      },
      {
        "centroide": {
          "lat": 43.26271,
          "lon": -2.934985
        },
        "id": "21",
        "nombre": "Jaén"
      },
      {
        "centroide": {
          "lat": 42.449698,
          "lon": -8.64482
        },
        "id": "22",
        "nombre": "La Coruña"
      },
      {
        "centroide": {
          "lat": 28.46981,
          "lon": -16.254855
        },
        "id": "23",
        "nombre": "Las Palmas"
      },
      {
        "centroide": {
          "lat": 42.857408,
          "lon": -2.672634
        },
        "id": "24",
        "nombre": "León"
      },
      {
        "centroide": {
          "lat": 39.862831,
          "lon": -4.027323
        },
        "id": "25",
        "nombre": "Lérida"
      },
      {
        "centroide": {
          "lat": 37.999378,
          "lon": -0.673047
        },
        "id": "27",
        "nombre": "Lugo"
      },
      {
        "centroide": {
          "lat": 40.4168,
          "lon": -3.7038
        },
        "id": "28",
        "nombre": "Madrid"
      },
      {
        "centroide": {
          "lat": 36.72127,
          "lon": -4.421399
        },
        "id": "29",
        "nombre": "Málaga"
      },
      {
        "centroide": {
          "lat": 39.489125,
          "lon": -6.067919
        },
        "id": "30",
        "nombre": "Mallorca"
      },
      {
        "centroide": {
          "lat": 37.968611,
          "lon": -0.683072
        },
        "id": "31",
        "nombre": "Murcia"
      },
      {
        "centroide": {
          "lat": 36.500877,
          "lon": -6.268434
        },
        "id": "32",
        "nombre": "Navarra"
      },
      {
        "centroide": {
          "lat": 41.267413,
          "lon": 1.976623
        },
        "id": "34",
        "nombre": "Orense"
      },
      {
        "centroide": {
          "lat": 37.725485,
          "lon": -1.700617
        },
        "id": "35",
        "nombre": "Palencia"
      },
      {
        "centroide": {
          "lat": 37.383333,
          "lon": -5.983333
        },
        "id": "36",
        "nombre": "Pontevedra"
      },
      {
        "centroide": {
          "lat": 39.166667,
          "lon": -0.333333
        },
        "id": "37",
        "nombre": "Salamanca"
      },
      {
        "centroide": {
          "lat": 41.366667,
          "lon": 2.15
        },
        "id": "38",
        "nombre": "Santa Cruz de Tenerife"
      },
      {
        "centroide": {
          "lat": 37.983333,
          "lon": -1.133333
        },
        "id": "40",
        "nombre": "Segovia"
      },
      {
        "centroide": {
          "lat": 41.6,
          "lon": -4.75
        },
        "id": "41",
        "nombre": "Sevilla"
      },
      {
        "centroide": {
          "lat": 42.658667,
          "lon": -6.392269
        },
        "id": "42",
        "nombre": "Soria"
      },
      {
        "centroide": {
          "lat": 40.966263,
          "lon": -5.66467
        },
        "id": "43",
        "nombre": "Tarragona"
      },
      {
        "centroide": {
          "lat": 40.308253,
          "lon": -3.732393
        },
        "id": "44",
        "nombre": "Teruel"
      },
      {
        "centroide": {
          "lat": 37.983333,
          "lon": -1.133333
        },
        "id": "45",
        "nombre": "Toledo"
      },
      {
        "centroide": {
          "lat": 39.483333,
          "lon": -6.366667
        },
        "id": "46",
        "nombre": "Valencia"
      },
      {
        "centroide": {
          "lat": 39.469706,
          "lon": -0.376335
        },
        "id": "47",
        "nombre": "Valladolid"
      },
      {
        "centroide": {
          "lat": 43.353652,
          "lon": -5.830348
        },
        "id": "48",
        "nombre": "Vizcaya"
      },
      {
        "centroide": {
          "lat": 41.648822,
          "lon": -4.728104
        },
        "id": "49",
        "nombre": "Zamora"
      },
      {
        "centroide": {
          "lat": 41.65,
          "lon": -0.883333
        },
        "id": "50",
        "nombre": "Zaragoza"
      },
      {
        "centroide": {
          "lat": 28.291564,
          "lon": -16.62913
        },
        "id": "51",
        "nombre": "Tenerife"
      },
      {
        "centroide": {
          "lat": 28.116667,
          "lon": -15.433333
        },
        "id": "52",
        "nombre": "Gran Canaria"
      },
      {
        "centroide": {
          "lat": 43.256963,
          "lon": -2.923441
        },
        "id": "53",
        "nombre": "La Rioja"
      },
      {
        "centroide": {
          "lat": 43.26271,
          "lon": -2.934985
        },
        "id": "54",
        "nombre": "Girona"
      },
      {
        "centroide": {
          "lat": 41.591158,
          "lon": 1.520862
        },
        "id": "55",
        "nombre": "Lleida"
      },
      {
        "centroide": {
          "lat": 41.591158,
          "lon": 1.520862
        },
        "id": "56",
        "nombre": "Girona"
      }
    ],
    "total": 52
  }
  